{
    "nodes": [
        {
            "id": 0,
            "name": "1",
            "type": "1",
            "popularity": 1,
            "longitude": 116.357063,
            "latitude": 39.964883,
            "connected_edges": [
                0,
                2,
                4,
                5,
                7
            ]
        },
        {
            "id": 1,
            "name": "2",
            "type": "2",
            "popularity": 2,
            "longitude": 116.357088,
            "latitude": 39.964512,
            "connected_edges": [
                0,
                4,
                12,
                5,
                6,
                14
            ]
        },
        {
            "id": 2,
            "name": "3",
            "type": "3",
            "popularity": 100,
            "longitude": 116.35712,
            "latitude": 39.96422,
            "connected_edges": [
                11,
                12,
                17,
                17,
                18,
                19
            ]
        },
        {
            "id": 3,
            "name": "第三教学楼卫生间",
            "type": "洗手间",
            "popularity": 2,
            "longitude": 116.35575,
            "latitude": 39.96034,
            "connected_edges": [
                136,
                199,
                200
            ]
        },
        {
            "id": 4,
            "name": "蓟门桥D出口",
            "type": "车站",
            "popularity": 100,
            "longitude": 116.355257,
            "latitude": 39.967231,
            "connected_edges": []
        },
        {
            "id": 5,
            "name": "师大北路路口",
            "type": "路口",
            "popularity": 100,
            "longitude": 116.354938,
            "latitude": 39.96491,
            "connected_edges": [
                1,
                3,
                0,
                1
            ]
        },
        {
            "id": 6,
            "name": "北门",
            "type": "大门",
            "popularity": 100,
            "longitude": 116.357059,
            "latitude": 39.964992,
            "connected_edges": [
                1,
                2,
                0,
                3,
                4
            ]
        },
        {
            "id": 7,
            "name": "西北门",
            "type": "大门",
            "popularity": 100,
            "longitude": 116.355217,
            "latitude": 39.96477,
            "connected_edges": [
                3,
                5,
                8,
                1,
                2
            ]
        },
        {
            "id": 8,
            "name": "北邮科技酒店",
            "type": "公寓",
            "popularity": 100,
            "longitude": 116.355255,
            "latitude": 39.964558,
            "connected_edges": [
                5,
                7,
                9,
                2
            ]
        },
        {
            "id": 9,
            "name": "学十一公寓南门",
            "type": "公寓",
            "popularity": 100,
            "longitude": 116.356002,
            "latitude": 39.964661,
            "connected_edges": [
                8,
                9,
                10,
                9
            ]
        },
        {
            "id": 10,
            "name": "路口A",
            "type": "路口",
            "popularity": 100,
            "longitude": 116.35619,
            "latitude": 39.964496,
            "connected_edges": [
                4,
                6,
                7,
                10,
                13,
                6,
                10,
                11,
                13
            ]
        },
        {
            "id": 11,
            "name": "路口G",
            "type": "路口",
            "popularity": 100,
            "longitude": 116.356233,
            "latitude": 39.964131,
            "connected_edges": [
                11,
                13,
                14,
                15,
                16,
                18,
                86,
                87
            ]
        },
        {
            "id": 12,
            "name": "教学楼九东门",
            "type": "教学类",
            "popularity": 100,
            "longitude": 116.356072,
            "latitude": 39.964335,
            "connected_edges": [
                6,
                14,
                15
            ]
        },
        {
            "id": 13,
            "name": "学六公寓",
            "type": "公寓",
            "popularity": 100,
            "longitude": 116.358156,
            "latitude": 39.964708,
            "connected_edges": [
                37
            ]
        },
        {
            "id": 14,
            "name": "综合食堂",
            "type": "食堂",
            "popularity": 100,
            "longitude": 116.35692,
            "latitude": 39.964013,
            "connected_edges": [
                17,
                20,
                20
            ]
        },
        {
            "id": 15,
            "name": "路口A",
            "type": "路口",
            "popularity": 100,
            "longitude": 116.355419,
            "latitude": 39.963641,
            "connected_edges": [
                62,
                63,
                88,
                89,
                95
            ]
        },
        {
            "id": 16,
            "name": "学生公寓5",
            "type": "公寓",
            "popularity": 100,
            "longitude": 116.35616,
            "latitude": 39.96355,
            "connected_edges": [
                60,
                93
            ]
        },
        {
            "id": 17,
            "name": "学生公寓8",
            "type": "公寓",
            "popularity": 100,
            "longitude": 116.356957,
            "latitude": 39.963592,
            "connected_edges": [
                55,
                56,
                105
            ]
        },
        {
            "id": 18,
            "name": "路口C",
            "type": "路口",
            "popularity": 100,
            "longitude": 116.35627,
            "latitude": 39.963112,
            "connected_edges": [
                53,
                54,
                59,
                67,
                68,
                94,
                99,
                100
            ]
        },
        {
            "id": 19,
            "name": "学三公寓",
            "type": "公寓",
            "popularity": 100,
            "longitude": 116.355876,
            "latitude": 39.962943,
            "connected_edges": [
                64,
                67,
                97
            ]
        },
        {
            "id": 20,
            "name": "学生公寓4",
            "type": "公寓",
            "popularity": 100,
            "longitude": 116.356746,
            "latitude": 39.962985,
            "connected_edges": [
                58,
                59,
                109
            ]
        },
        {
            "id": 21,
            "name": "学生公寓1",
            "type": "公寓",
            "popularity": 100,
            "longitude": 116.355895,
            "latitude": 39.962396,
            "connected_edges": [
                66,
                70,
                126,
                128
            ]
        },
        {
            "id": 22,
            "name": "学生公寓2",
            "type": "公寓",
            "popularity": 100,
            "longitude": 116.356737,
            "latitude": 39.962403,
            "connected_edges": [
                72,
                73,
                122,
                123,
                124
            ]
        },
        {
            "id": 23,
            "name": "路口J",
            "type": "路口",
            "popularity": 100,
            "longitude": 116.357176,
            "latitude": 39.96314,
            "connected_edges": [
                51,
                53,
                57,
                58,
                75,
                101,
                102,
                110
            ]
        },
        {
            "id": 24,
            "name": "小松林",
            "type": "景点",
            "popularity": 100,
            "longitude": 116.357472,
            "latitude": 39.963032,
            "connected_edges": [
                57,
                76,
                77,
                112
            ]
        },
        {
            "id": 25,
            "name": "时光广场",
            "type": "景点",
            "popularity": 100,
            "longitude": 116.357484,
            "latitude": 39.96242,
            "connected_edges": [
                74,
                76,
                78,
                119
            ]
        },
        {
            "id": 26,
            "name": "图书馆",
            "type": "教学楼",
            "popularity": 100,
            "longitude": 116.357922,
            "latitude": 39.962792,
            "connected_edges": [
                77,
                78,
                117
            ]
        },
        {
            "id": 27,
            "name": "经管楼",
            "type": "教学楼",
            "popularity": 100,
            "longitude": 116.357487,
            "latitude": 39.964452,
            "connected_edges": [
                21,
                82
            ]
        },
        {
            "id": 28,
            "name": "学生活动中心",
            "type": "活动场所",
            "popularity": 100,
            "longitude": 116.357389,
            "latitude": 39.963866,
            "connected_edges": [
                16,
                19,
                39,
                23
            ]
        },
        {
            "id": 29,
            "name": "澡堂",
            "type": "公共浴室",
            "popularity": 100,
            "longitude": 116.357818,
            "latitude": 39.963989,
            "connected_edges": [
                37,
                38,
                40,
                42,
                28,
                29
            ]
        },
        {
            "id": 30,
            "name": "水房",
            "type": "公共浴室",
            "popularity": 100,
            "longitude": 116.358152,
            "latitude": 39.964004,
            "connected_edges": [
                38,
                43,
                44,
                29,
                30
            ]
        },
        {
            "id": 31,
            "name": "物美超市",
            "type": "超市",
            "popularity": 100,
            "longitude": 116.357818,
            "latitude": 39.963724,
            "connected_edges": [
                41,
                42,
                44,
                107
            ]
        },
        {
            "id": 32,
            "name": "营业厅",
            "type": "商店",
            "popularity": 100,
            "longitude": 116.357586,
            "latitude": 39.963736,
            "connected_edges": [
                39,
                40,
                41,
                43,
                106
            ]
        },
        {
            "id": 33,
            "name": "学苑餐厅",
            "type": "食堂",
            "popularity": 100,
            "longitude": 116.358549,
            "latitude": 39.963582,
            "connected_edges": [
                36,
                61
            ]
        },
        {
            "id": 34,
            "name": "学六公寓东门",
            "type": "大门",
            "popularity": 100,
            "longitude": 116.358201,
            "latitude": 39.964618,
            "connected_edges": [
                26,
                36,
                37
            ]
        },
        {
            "id": 35,
            "name": "拐角",
            "type": "路口",
            "popularity": 100,
            "longitude": 116.358599,
            "latitude": 39.964633,
            "connected_edges": [
                25,
                26,
                35,
                36
            ]
        },
        {
            "id": 36,
            "name": "路口C",
            "type": "路口",
            "popularity": 100,
            "longitude": 116.358631,
            "latitude": 39.964507,
            "connected_edges": [
                24,
                25,
                27,
                34,
                35,
                38
            ]
        },
        {
            "id": 37,
            "name": "青年教师公寓",
            "type": "公寓",
            "popularity": 100,
            "longitude": 116.360338,
            "latitude": 39.964532,
            "connected_edges": [
                30,
                88,
                43,
                44,
                48
            ]
        },
        {
            "id": 38,
            "name": "路口D",
            "type": "路口",
            "popularity": 100,
            "longitude": 116.359342,
            "latitude": 39.964507,
            "connected_edges": [
                27,
                28,
                29,
                38,
                39,
                40
            ]
        },
        {
            "id": 39,
            "name": "北家属区",
            "type": "家属区",
            "popularity": 100,
            "longitude": 116.359342,
            "latitude": 39.964772,
            "connected_edges": [
                28,
                39
            ]
        },
        {
            "id": 40,
            "name": "科研楼",
            "type": "科研场所",
            "popularity": 100,
            "longitude": 116.359499,
            "latitude": 39.964125,
            "connected_edges": [
                32,
                42
            ]
        },
        {
            "id": 41,
            "name": "拐角遇到爱",
            "type": "卫生间",
            "popularity": 100,
            "longitude": 116.359609,
            "latitude": 39.964507,
            "connected_edges": [
                29,
                30,
                31,
                40,
                41,
                43
            ]
        },
        {
            "id": 42,
            "name": "拐角撞见爱！",
            "type": "卫生间",
            "popularity": 100,
            "longitude": 116.359674,
            "latitude": 39.964165,
            "connected_edges": [
                31,
                32,
                33,
                41,
                42,
                45
            ]
        },
        {
            "id": 43,
            "name": "路口Y1",
            "type": "路口",
            "popularity": 100,
            "longitude": 116.359735,
            "latitude": 39.963663,
            "connected_edges": [
                33,
                34,
                83,
                56,
                57,
                58,
                68
            ]
        },
        {
            "id": 44,
            "name": "学生食堂西门",
            "type": "食堂",
            "popularity": 100,
            "longitude": 116.35883,
            "latitude": 39.963323,
            "connected_edges": [
                52,
                84,
                63
            ]
        },
        {
            "id": 45,
            "name": "学生食堂南门",
            "type": "食堂",
            "popularity": 100,
            "longitude": 116.359188,
            "latitude": 39.96312,
            "connected_edges": [
                84,
                85,
                86,
                67
            ]
        },
        {
            "id": 46,
            "name": "路口Y2",
            "type": "路口",
            "popularity": 100,
            "longitude": 116.359774,
            "latitude": 39.963053,
            "connected_edges": [
                82,
                83,
                86,
                87,
                66,
                68,
                69
            ]
        },
        {
            "id": 47,
            "name": "公共厕所",
            "type": "洗手间",
            "popularity": 100,
            "longitude": 116.360337,
            "latitude": 39.96309,
            "connected_edges": [
                87,
                88,
                89,
                92,
                69,
                70,
                79,
                85
            ]
        },
        {
            "id": 48,
            "name": "路口X1",
            "type": "路口",
            "popularity": 100,
            "longitude": 116.360851,
            "latitude": 39.963023,
            "connected_edges": [
                89,
                90,
                77,
                78,
                83
            ]
        },
        {
            "id": 49,
            "name": "东门",
            "type": "大门",
            "popularity": 100,
            "longitude": 116.360887,
            "latitude": 39.962419,
            "connected_edges": [
                90,
                91,
                83,
                84
            ]
        },
        {
            "id": 50,
            "name": "路口X2",
            "type": "路口",
            "popularity": 100,
            "longitude": 116.360365,
            "latitude": 39.962384,
            "connected_edges": [
                91,
                92,
                93,
                94,
                84,
                85,
                140,
                141
            ]
        },
        {
            "id": 51,
            "name": "路口X3",
            "type": "路口",
            "popularity": 100,
            "longitude": 116.360393,
            "latitude": 39.962289,
            "connected_edges": [
                94,
                141,
                142,
                144
            ]
        },
        {
            "id": 52,
            "name": "体育馆",
            "type": "活动场所",
            "popularity": 100,
            "longitude": 116.359573,
            "latitude": 39.962051,
            "connected_edges": [
                102,
                103,
                146
            ]
        },
        {
            "id": 53,
            "name": "游泳馆",
            "type": "活动场所",
            "popularity": 100,
            "longitude": 116.360709,
            "latitude": 39.961918,
            "connected_edges": [
                103,
                143
            ]
        },
        {
            "id": 54,
            "name": "篮球场",
            "type": "活动场所",
            "popularity": 100,
            "longitude": 116.359243,
            "latitude": 39.962702,
            "connected_edges": [
                95,
                96,
                97,
                99,
                136
            ]
        },
        {
            "id": 55,
            "name": "网球场",
            "type": "活动场所",
            "popularity": 100,
            "longitude": 116.360095,
            "latitude": 39.962844,
            "connected_edges": [
                98,
                99,
                138
            ]
        },
        {
            "id": 56,
            "name": "排球场",
            "type": "活动场所",
            "popularity": 100,
            "longitude": 116.360103,
            "latitude": 39.962619,
            "connected_edges": [
                97,
                98,
                137,
                138
            ]
        },
        {
            "id": 57,
            "name": "宿舍交叉口",
            "type": "路口",
            "popularity": 100,
            "longitude": 116.356254,
            "latitude": 39.96376,
            "connected_edges": [
                15,
                16,
                18,
                54,
                60,
                61,
                86,
                90,
                91
            ]
        },
        {
            "id": 58,
            "name": "学十三公寓",
            "type": "公寓",
            "popularity": 100,
            "longitude": 116.355432,
            "latitude": 39.962988,
            "connected_edges": [
                63,
                64,
                65,
                95,
                96,
                130
            ]
        },
        {
            "id": 59,
            "name": "鸿通楼",
            "type": "行政",
            "popularity": 100,
            "longitude": 116.355484,
            "latitude": 39.962216,
            "connected_edges": [
                65,
                66,
                69,
                104,
                105,
                129,
                130,
                155
            ]
        },
        {
            "id": 60,
            "name": "教四楼西门",
            "type": "教学楼",
            "popularity": 100,
            "longitude": 116.355565,
            "latitude": 39.961944,
            "connected_edges": [
                104,
                108,
                110,
                156,
                159
            ]
        },
        {
            "id": 61,
            "name": "教四楼南门",
            "type": "教学楼",
            "popularity": 100,
            "longitude": 116.356328,
            "latitude": 39.961731,
            "connected_edges": [
                109,
                111,
                112,
                161,
                163,
                164,
                177
            ]
        },
        {
            "id": 62,
            "name": "教四楼东区",
            "type": "教学楼",
            "popularity": 100,
            "longitude": 116.357003,
            "latitude": 39.961953,
            "connected_edges": [
                110,
                119,
                154,
                160
            ]
        },
        {
            "id": 63,
            "name": "教一楼南门",
            "type": "教学楼",
            "popularity": 100,
            "longitude": 116.358013,
            "latitude": 39.961842,
            "connected_edges": [
                122,
                167
            ]
        },
        {
            "id": 64,
            "name": "教一楼西门",
            "type": "教学楼",
            "popularity": 100,
            "longitude": 116.357447,
            "latitude": 39.961947,
            "connected_edges": [
                119,
                120,
                153
            ]
        },
        {
            "id": 65,
            "name": "教一楼东区",
            "type": "教学楼",
            "popularity": 100,
            "longitude": 116.358732,
            "latitude": 39.96198,
            "connected_edges": [
                100,
                101,
                145,
                169,
                170,
                172
            ]
        },
        {
            "id": 66,
            "name": "行政楼",
            "type": "行政",
            "popularity": 100,
            "longitude": 116.358012,
            "latitude": 39.962118,
            "connected_edges": [
                121,
                122,
                151
            ]
        },
        {
            "id": 67,
            "name": "后勤处",
            "type": "行政",
            "popularity": 100,
            "longitude": 116.357671,
            "latitude": 39.962124,
            "connected_edges": [
                120,
                121,
                148
            ]
        },
        {
            "id": 68,
            "name": "校训石",
            "type": "景点",
            "popularity": 100,
            "longitude": 116.356349,
            "latitude": 39.961195,
            "connected_edges": [
                112,
                113,
                114,
                176,
                177,
                178,
                197
            ]
        },
        {
            "id": 69,
            "name": "主席像",
            "type": "景点",
            "popularity": 100,
            "longitude": 116.356831,
            "latitude": 39.961198,
            "connected_edges": [
                114,
                115,
                178,
                179
            ]
        },
        {
            "id": 70,
            "name": "音乐喷泉",
            "type": "景点",
            "popularity": 100,
            "longitude": 116.357843,
            "latitude": 39.961167,
            "connected_edges": [
                116,
                117,
                181,
                182
            ]
        },
        {
            "id": 71,
            "name": "主楼",
            "type": "教学楼",
            "popularity": 100,
            "longitude": 116.358232,
            "latitude": 39.961272,
            "connected_edges": [
                117,
                182
            ]
        },
        {
            "id": 72,
            "name": "路口N",
            "type": "路口",
            "popularity": 100,
            "longitude": 116.357284,
            "latitude": 39.961192,
            "connected_edges": [
                115,
                116,
                118,
                123,
                179,
                180,
                181,
                183
            ]
        },
        {
            "id": 73,
            "name": "路口R",
            "type": "路口",
            "popularity": 100,
            "longitude": 116.357303,
            "latitude": 39.960719,
            "connected_edges": [
                123,
                124,
                127,
                128,
                183,
                184,
                193
            ]
        },
        {
            "id": 74,
            "name": "教学楼二西门",
            "type": "教学楼",
            "popularity": 100,
            "longitude": 116.357504,
            "latitude": 39.960494,
            "connected_edges": [
                128,
                129,
                130,
                194,
                195
            ]
        },
        {
            "id": 75,
            "name": "科学会堂",
            "type": "活动场所",
            "popularity": 100,
            "longitude": 116.35902,
            "latitude": 39.961283,
            "connected_edges": [
                143,
                188
            ]
        },
        {
            "id": 76,
            "name": "又是拐角",
            "type": "路口",
            "popularity": 100,
            "longitude": 116.358644,
            "latitude": 39.960754,
            "connected_edges": [
                124,
                125,
                126,
                149,
                184,
                187,
                196
            ]
        },
        {
            "id": 77,
            "name": "创新楼",
            "type": "科研场所",
            "popularity": 100,
            "longitude": 116.358644,
            "latitude": 39.9605,
            "connected_edges": [
                126,
                130,
                139,
                195,
                196,
                205
            ]
        },
        {
            "id": 78,
            "name": "拐角体育场",
            "type": "路口",
            "popularity": 100,
            "longitude": 116.359354,
            "latitude": 39.96076,
            "connected_edges": [
                125,
                141,
                142,
                189,
                190,
                207
            ]
        },
        {
            "id": 79,
            "name": "体育场拐角2",
            "type": "路口",
            "popularity": 100,
            "longitude": 116.359359,
            "latitude": 39.961188,
            "connected_edges": [
                142,
                143,
                148,
                190,
                191,
                192
            ]
        },
        {
            "id": 80,
            "name": "田径场",
            "type": "活动场所",
            "popularity": 100,
            "longitude": 116.36016,
            "latitude": 39.961209,
            "connected_edges": [
                191
            ]
        },
        {
            "id": 81,
            "name": "校医院",
            "type": "医院",
            "popularity": 100,
            "longitude": 116.356889,
            "latitude": 39.959901,
            "connected_edges": [
                134,
                211
            ]
        },
        {
            "id": 82,
            "name": "中门",
            "type": "大门",
            "popularity": 100,
            "longitude": 116.357321,
            "latitude": 39.960148,
            "connected_edges": [
                127,
                129,
                131,
                134,
                137,
                138,
                202,
                203,
                204,
                208
            ]
        },
        {
            "id": 83,
            "name": "",
            "type": "default",
            "popularity": 100,
            "longitude": 116.357424,
            "latitude": 39.95851,
            "connected_edges": [
                131,
                132,
                247,
                248
            ]
        },
        {
            "id": 84,
            "name": "",
            "type": "default",
            "popularity": 100,
            "longitude": 116.358005,
            "latitude": 39.958461,
            "connected_edges": [
                132,
                133,
                248,
                249,
                250
            ]
        },
        {
            "id": 85,
            "name": "南门",
            "type": "大门",
            "popularity": 100,
            "longitude": 116.35803,
            "latitude": 39.95832,
            "connected_edges": [
                133,
                249
            ]
        },
        {
            "id": 86,
            "name": "交叉口",
            "type": "路口",
            "popularity": 100,
            "longitude": 116.357153,
            "latitude": 39.963804,
            "connected_edges": [
                18,
                19,
                20,
                46,
                50,
                56,
                21,
                22,
                91,
                104
            ]
        },
        {
            "id": 87,
            "name": "路口x",
            "type": "路口",
            "popularity": 100,
            "longitude": 116.357125,
            "latitude": 39.96435,
            "connected_edges": [
                21,
                22,
                14,
                17,
                32,
                80
            ]
        },
        {
            "id": 88,
            "name": "路口x2",
            "type": "路口",
            "popularity": 100,
            "longitude": 116.357855,
            "latitude": 39.964375,
            "connected_edges": [
                22,
                23,
                37,
                32,
                33,
                81
            ]
        },
        {
            "id": 89,
            "name": "路口x3",
            "type": "路口",
            "popularity": 100,
            "longitude": 116.35859,
            "latitude": 39.964413,
            "connected_edges": [
                23,
                24,
                35,
                45,
                31,
                33,
                34
            ]
        },
        {
            "id": 90,
            "name": "丁字路口1",
            "type": "路口",
            "popularity": 100,
            "longitude": 116.3587,
            "latitude": 39.963648,
            "connected_edges": [
                34,
                35,
                36,
                47,
                49,
                58,
                59,
                60
            ]
        },
        {
            "id": 91,
            "name": "丁字路口2",
            "type": "路口",
            "popularity": 100,
            "longitude": 116.358634,
            "latitude": 39.963863,
            "connected_edges": [
                45,
                46,
                47,
                27,
                31,
                59
            ]
        },
        {
            "id": 92,
            "name": "丁字路口3",
            "type": "路口",
            "popularity": 100,
            "longitude": 116.358694,
            "latitude": 39.963312,
            "connected_edges": [
                48,
                49,
                52,
                81,
                62,
                63,
                64,
                108
            ]
        },
        {
            "id": 93,
            "name": "丁字路口4",
            "type": "路口",
            "popularity": 100,
            "longitude": 116.357175,
            "latitude": 39.963278,
            "connected_edges": [
                48,
                50,
                51,
                55,
                102,
                103,
                108
            ]
        },
        {
            "id": 94,
            "name": "丁字路口‘",
            "type": "路口",
            "popularity": 100,
            "longitude": 116.356252,
            "latitude": 39.963651,
            "connected_edges": [
                61,
                62,
                89,
                90,
                92
            ]
        },
        {
            "id": 95,
            "name": "Null",
            "type": "路口",
            "popularity": 100,
            "longitude": 116.356296,
            "latitude": 39.962232,
            "connected_edges": [
                68,
                69,
                70,
                71,
                73,
                111,
                125,
                127,
                131,
                158
            ]
        },
        {
            "id": 96,
            "name": "none",
            "type": "路口",
            "popularity": 100,
            "longitude": 116.357245,
            "latitude": 39.962289,
            "connected_edges": [
                71,
                72,
                74,
                75,
                79,
                118,
                120,
                132,
                133,
                147,
                152
            ]
        },
        {
            "id": 97,
            "name": "null",
            "type": "路口",
            "popularity": 100,
            "longitude": 116.358703,
            "latitude": 39.962327,
            "connected_edges": [
                79,
                80,
                93,
                95,
                100,
                133,
                134,
                139,
                150,
                170
            ]
        },
        {
            "id": 98,
            "name": "null_",
            "type": "路口",
            "popularity": 100,
            "longitude": 116.358709,
            "latitude": 39.96302,
            "connected_edges": [
                80,
                81,
                82,
                85,
                96,
                64,
                65,
                135
            ]
        },
        {
            "id": 99,
            "name": "Null_`",
            "type": "路口",
            "popularity": 100,
            "longitude": 116.359219,
            "latitude": 39.962002,
            "connected_edges": [
                101,
                102,
                147,
                145,
                146,
                172,
                173
            ]
        },
        {
            "id": 100,
            "name": "西门",
            "type": "大门",
            "popularity": 100,
            "longitude": 116.355306,
            "latitude": 39.96116,
            "connected_edges": [
                107,
                175
            ]
        },
        {
            "id": 101,
            "name": "null1",
            "type": "路口",
            "popularity": 100,
            "longitude": 116.355507,
            "latitude": 39.961709,
            "connected_edges": [
                105,
                106,
                108,
                109,
                162,
                163,
                174
            ]
        },
        {
            "id": 102,
            "name": "null2",
            "type": "路口",
            "popularity": 100,
            "longitude": 116.355537,
            "latitude": 39.961151,
            "connected_edges": [
                106,
                107,
                113,
                135,
                174,
                175,
                176,
                198
            ]
        },
        {
            "id": 103,
            "name": "null.`",
            "type": "路口",
            "popularity": 100,
            "longitude": 116.355623,
            "latitude": 39.960139,
            "connected_edges": [
                135,
                136,
                137,
                198,
                199,
                203
            ]
        },
        {
            "id": 104,
            "name": "cross",
            "type": "路口",
            "popularity": 100,
            "longitude": 116.358653,
            "latitude": 39.960181,
            "connected_edges": [
                138,
                139,
                140,
                204,
                205,
                206
            ]
        },
        {
            "id": 105,
            "name": "null'",
            "type": "路口",
            "popularity": 100,
            "longitude": 116.359337,
            "latitude": 39.960234,
            "connected_edges": [
                140,
                141,
                206,
                207
            ]
        },
        {
            "id": 106,
            "name": "null_'",
            "type": "路口",
            "popularity": 100,
            "longitude": 116.357243,
            "latitude": 39.961705,
            "connected_edges": [
                144,
                164,
                165,
                166,
                180
            ]
        },
        {
            "id": 107,
            "name": "null__';`",
            "type": "路口",
            "popularity": 100,
            "longitude": 116.358715,
            "latitude": 39.961698,
            "connected_edges": [
                144,
                145,
                146,
                149,
                168,
                169,
                171,
                185
            ]
        },
        {
            "id": 108,
            "name": "crossing",
            "type": "路口",
            "popularity": 100,
            "longitude": 116.359278,
            "latitude": 39.961645,
            "connected_edges": [
                146,
                147,
                148,
                171,
                173,
                192
            ]
        },
        {
            "id": 109,
            "name": "未知路口1",
            "type": "路口",
            "popularity": 100,
            "longitude": 116.357354,
            "latitude": 39.959789,
            "connected_edges": [
                210,
                212,
                213,
                223
            ]
        },
        {
            "id": 110,
            "name": "未知路口2",
            "type": "路口",
            "popularity": 100,
            "longitude": 116.357383,
            "latitude": 39.959414,
            "connected_edges": [
                223,
                224,
                226
            ]
        },
        {
            "id": 111,
            "name": "幼儿园西门",
            "type": "大门",
            "popularity": 100,
            "longitude": 116.35874,
            "latitude": 39.959448,
            "connected_edges": [
                226,
                227,
                228,
                246
            ]
        },
        {
            "id": 112,
            "name": "未知路口3",
            "type": "路口",
            "popularity": 100,
            "longitude": 116.35742,
            "latitude": 39.958932,
            "connected_edges": [
                224,
                225,
                237
            ]
        },
        {
            "id": 113,
            "name": "三岔路口1",
            "type": "路口",
            "popularity": 100,
            "longitude": 116.357816,
            "latitude": 39.95896,
            "connected_edges": [
                237,
                238,
                241,
                243
            ]
        },
        {
            "id": 114,
            "name": "三岔路口2",
            "type": "路口",
            "popularity": 100,
            "longitude": 116.358464,
            "latitude": 39.958951,
            "connected_edges": [
                240,
                241,
                242,
                245
            ]
        },
        {
            "id": 115,
            "name": "拐点1",
            "type": "路口",
            "popularity": 100,
            "longitude": 116.357825,
            "latitude": 39.959131,
            "connected_edges": [
                238,
                239
            ]
        },
        {
            "id": 116,
            "name": "拐点2",
            "type": "路口",
            "popularity": 100,
            "longitude": 116.358448,
            "latitude": 39.95915,
            "connected_edges": [
                239,
                240
            ]
        },
        {
            "id": 117,
            "name": "拐点3",
            "type": "路口",
            "popularity": 100,
            "longitude": 116.35846,
            "latitude": 39.95878,
            "connected_edges": [
                244,
                245
            ]
        },
        {
            "id": 118,
            "name": "拐点4",
            "type": "路口",
            "popularity": 100,
            "longitude": 116.357841,
            "latitude": 39.958799,
            "connected_edges": [
                243,
                244
            ]
        },
        {
            "id": 119,
            "name": "北邮幼儿园",
            "type": "学校",
            "popularity": 100,
            "longitude": 116.359133,
            "latitude": 39.959465,
            "connected_edges": [
                228
            ]
        },
        {
            "id": 120,
            "name": "路口1",
            "type": "路口",
            "popularity": 100,
            "longitude": 116.358772,
            "latitude": 39.958947,
            "connected_edges": [
                242,
                246,
                251
            ]
        },
        {
            "id": 121,
            "name": "社区公共厕所",
            "type": "洗手间",
            "popularity": 100,
            "longitude": 116.358784,
            "latitude": 39.958574,
            "connected_edges": [
                250,
                251,
                252
            ]
        },
        {
            "id": 122,
            "name": "路口3",
            "type": "路口",
            "popularity": 100,
            "longitude": 116.359221,
            "latitude": 39.958582,
            "connected_edges": [
                252,
                253,
                257
            ]
        },
        {
            "id": 123,
            "name": "拐点5",
            "type": "路口",
            "popularity": 100,
            "longitude": 116.359231,
            "latitude": 39.958749,
            "connected_edges": [
                253,
                254
            ]
        },
        {
            "id": 124,
            "name": "家属区13号楼",
            "type": "家属区",
            "popularity": 100,
            "longitude": 116.359529,
            "latitude": 39.958754,
            "connected_edges": [
                254,
                255
            ]
        },
        {
            "id": 125,
            "name": "拐点6",
            "type": "路口",
            "popularity": 100,
            "longitude": 116.359839,
            "latitude": 39.958741,
            "connected_edges": [
                255,
                256
            ]
        },
        {
            "id": 126,
            "name": "交叉口",
            "type": "路口",
            "popularity": 100,
            "longitude": 116.359852,
            "latitude": 39.958588,
            "connected_edges": [
                256,
                257,
                258
            ]
        },
        {
            "id": 127,
            "name": "无名路口",
            "type": "路口",
            "popularity": 100,
            "longitude": 116.360299,
            "latitude": 39.958592,
            "connected_edges": [
                258,
                259
            ]
        },
        {
            "id": 128,
            "name": "北京交通大学附属中学分校",
            "type": "学校",
            "popularity": 100,
            "longitude": 116.360298,
            "latitude": 39.958443,
            "connected_edges": [
                259
            ]
        },
        {
            "id": 129,
            "name": "无名丁字路口",
            "type": "路口",
            "popularity": 100,
            "longitude": 116.357427,
            "latitude": 39.958771,
            "connected_edges": [
                222,
                225,
                247
            ]
        },
        {
            "id": 130,
            "name": "无名十字路口",
            "type": "路口",
            "popularity": 100,
            "longitude": 116.356476,
            "latitude": 39.958759,
            "connected_edges": [
                221,
                222
            ]
        },
        {
            "id": 131,
            "name": "丁字路口2",
            "type": "路口",
            "popularity": 100,
            "longitude": 116.356464,
            "latitude": 39.959117,
            "connected_edges": [
                220,
                221
            ]
        },
        {
            "id": 132,
            "name": "超市路口",
            "type": "路口",
            "popularity": 100,
            "longitude": 116.356458,
            "latitude": 39.959261,
            "connected_edges": [
                217,
                218,
                220
            ]
        },
        {
            "id": 133,
            "name": "南区超市",
            "type": "超市",
            "popularity": 100,
            "longitude": 116.35662,
            "latitude": 39.959273,
            "connected_edges": [
                218,
                219
            ]
        },
        {
            "id": 134,
            "name": "未知交叉路口",
            "type": "路口",
            "popularity": 100,
            "longitude": 116.356442,
            "latitude": 39.959714,
            "connected_edges": [
                213,
                214
            ]
        },
        {
            "id": 135,
            "name": "未知点",
            "type": "路口",
            "popularity": 100,
            "longitude": 116.35734,
            "latitude": 39.959949,
            "connected_edges": [
                208,
                209,
                210,
                211
            ]
        },
        {
            "id": 136,
            "name": "邮局",
            "type": "邮局",
            "popularity": 100,
            "longitude": 116.357574,
            "latitude": 39.959978,
            "connected_edges": [
                209
            ]
        },
        {
            "id": 137,
            "name": "未知路口",
            "type": "路口",
            "popularity": 100,
            "longitude": 116.358721,
            "latitude": 39.959853,
            "connected_edges": [
                212,
                227,
                229
            ]
        },
        {
            "id": 138,
            "name": "未知拐点",
            "type": "路口",
            "popularity": 100,
            "longitude": 116.359352,
            "latitude": 39.959888,
            "connected_edges": [
                229,
                230
            ]
        },
        {
            "id": 139,
            "name": "未知拐点2",
            "type": "路口",
            "popularity": 100,
            "longitude": 116.359603,
            "latitude": 39.959713,
            "connected_edges": [
                230,
                231
            ]
        },
        {
            "id": 140,
            "name": "未知拐点3",
            "type": "路口",
            "popularity": 100,
            "longitude": 116.359613,
            "latitude": 39.959496,
            "connected_edges": [
                231,
                232
            ]
        },
        {
            "id": 141,
            "name": "未知路口3",
            "type": "路口",
            "popularity": 100,
            "longitude": 116.360793,
            "latitude": 39.959474,
            "connected_edges": [
                232,
                233
            ]
        },
        {
            "id": 142,
            "name": "拐点6",
            "type": "路口",
            "popularity": 100,
            "longitude": 116.360862,
            "latitude": 39.958742,
            "connected_edges": [
                233,
                234
            ]
        },
        {
            "id": 143,
            "name": "杏坛路口",
            "type": "路口",
            "popularity": 100,
            "longitude": 116.361249,
            "latitude": 39.958746,
            "connected_edges": [
                234,
                235
            ]
        },
        {
            "id": 144,
            "name": "明光楼大门",
            "type": "大门",
            "popularity": 100,
            "longitude": 116.361251,
            "latitude": 39.958595,
            "connected_edges": [
                235,
                236
            ]
        },
        {
            "id": 145,
            "name": "明光楼",
            "type": "教学楼",
            "popularity": 100,
            "longitude": 116.360992,
            "latitude": 39.9586,
            "connected_edges": [
                236
            ]
        },
        {
            "id": 146,
            "name": "未知十字路口",
            "type": "路口",
            "popularity": 100,
            "longitude": 116.35645,
            "latitude": 39.959502,
            "connected_edges": [
                214,
                215,
                217
            ]
        },
        {
            "id": 147,
            "name": "未知拐点_",
            "type": "路口",
            "popularity": 100,
            "longitude": 116.356754,
            "latitude": 39.959489,
            "connected_edges": [
                215,
                216
            ]
        },
        {
            "id": 148,
            "name": "居委会社区",
            "type": "社区",
            "popularity": 100,
            "longitude": 116.356767,
            "latitude": 39.959338,
            "connected_edges": [
                216,
                219
            ]
        },
        {
            "id": 149,
            "name": "北门快递站",
            "type": "驿站",
            "popularity": 100,
            "longitude": 116.357365,
            "latitude": 39.965005,
            "connected_edges": [
                3
            ]
        },
        {
            "id": 150,
            "name": "体育馆卫生间",
            "type": "洗手间",
            "popularity": 100,
            "longitude": 116.360384,
            "latitude": 39.963184,
            "connected_edges": [
                70,
                71
            ]
        },
        {
            "id": 151,
            "name": "路口_",
            "type": "路口",
            "popularity": 100,
            "longitude": 116.360389,
            "latitude": 39.963504,
            "connected_edges": [
                71,
                72,
                73
            ]
        },
        {
            "id": 152,
            "name": "路口",
            "type": "路口",
            "popularity": 100,
            "longitude": 116.360818,
            "latitude": 39.963493,
            "connected_edges": [
                72,
                74,
                75
            ]
        },
        {
            "id": 153,
            "name": "未知丁字路口",
            "type": "路口",
            "popularity": 100,
            "longitude": 116.360804,
            "latitude": 39.963778,
            "connected_edges": [
                53,
                55,
                74
            ]
        },
        {
            "id": 154,
            "name": "十字路口",
            "type": "路口",
            "popularity": 100,
            "longitude": 116.360368,
            "latitude": 39.963729,
            "connected_edges": [
                54,
                55,
                56,
                73
            ]
        },
        {
            "id": 155,
            "name": "路口__",
            "type": "路口",
            "popularity": 100,
            "longitude": 116.359712,
            "latitude": 39.964035,
            "connected_edges": [
                45,
                46,
                57
            ]
        },
        {
            "id": 156,
            "name": "保卫处大门",
            "type": "大门",
            "popularity": 100,
            "longitude": 116.360838,
            "latitude": 39.963266,
            "connected_edges": [
                75,
                76,
                77
            ]
        },
        {
            "id": 157,
            "name": "保卫处",
            "type": "行政",
            "popularity": 100,
            "longitude": 116.360709,
            "latitude": 39.963273,
            "connected_edges": [
                76
            ]
        },
        {
            "id": 158,
            "name": "北京邮电大学老干部活动中心",
            "type": "生活服务场所",
            "popularity": 100,
            "longitude": 116.360643,
            "latitude": 39.963993,
            "connected_edges": [
                52
            ]
        },
        {
            "id": 159,
            "name": "活动中心大门",
            "type": "大门",
            "popularity": 100,
            "longitude": 116.360785,
            "latitude": 39.963999,
            "connected_edges": [
                51,
                52,
                53
            ]
        },
        {
            "id": 160,
            "name": "路口——",
            "type": "路口",
            "popularity": 100,
            "longitude": 116.360778,
            "latitude": 39.96454,
            "connected_edges": [
                44,
                50
            ]
        },
        {
            "id": 161,
            "name": "学一入口",
            "type": "路口",
            "popularity": 100,
            "longitude": 116.355887,
            "latitude": 39.962226,
            "connected_edges": [
                127,
                128,
                129
            ]
        },
        {
            "id": 162,
            "name": "学二入口",
            "type": "路口",
            "popularity": 100,
            "longitude": 116.356733,
            "latitude": 39.962251,
            "connected_edges": [
                124,
                131,
                132
            ]
        },
        {
            "id": 163,
            "name": "学四入口",
            "type": "路口",
            "popularity": 100,
            "longitude": 116.356733,
            "latitude": 39.963109,
            "connected_edges": [
                100,
                101,
                109
            ]
        },
        {
            "id": 164,
            "name": "宿舍路口",
            "type": "路口",
            "popularity": 100,
            "longitude": 116.356276,
            "latitude": 39.962978,
            "connected_edges": [
                98,
                99,
                121
            ]
        },
        {
            "id": 165,
            "name": "宿舍12交叉口",
            "type": "路口",
            "popularity": 100,
            "longitude": 116.356285,
            "latitude": 39.962412,
            "connected_edges": [
                121,
                122,
                125,
                126
            ]
        },
        {
            "id": 166,
            "name": "路口‘",
            "type": "路口",
            "popularity": 100,
            "longitude": 116.357234,
            "latitude": 39.962419,
            "connected_edges": [
                118,
                119,
                120,
                123
            ]
        },
        {
            "id": 167,
            "name": "Y字路口1",
            "type": "路口",
            "popularity": 100,
            "longitude": 116.357222,
            "latitude": 39.962669,
            "connected_edges": [
                115,
                116,
                118
            ]
        },
        {
            "id": 168,
            "name": "Y字路口2",
            "type": "路口",
            "popularity": 100,
            "longitude": 116.357196,
            "latitude": 39.962937,
            "connected_edges": [
                110,
                111,
                116
            ]
        },
        {
            "id": 169,
            "name": "广场拐点1",
            "type": "路口",
            "popularity": 100,
            "longitude": 116.35755,
            "latitude": 39.962922,
            "connected_edges": [
                111,
                112,
                113
            ]
        },
        {
            "id": 170,
            "name": "广场拐点2",
            "type": "路口",
            "popularity": 100,
            "longitude": 116.357547,
            "latitude": 39.96273,
            "connected_edges": [
                114,
                115
            ]
        },
        {
            "id": 171,
            "name": "图书馆入口",
            "type": "路口",
            "popularity": 100,
            "longitude": 116.357584,
            "latitude": 39.962817,
            "connected_edges": [
                113,
                114,
                117
            ]
        },
        {
            "id": 172,
            "name": "科技大厦入口",
            "type": "大门",
            "popularity": 100,
            "longitude": 116.355498,
            "latitude": 39.964496,
            "connected_edges": [
                11,
                12
            ]
        },
        {
            "id": 173,
            "name": "北京北邮科技大厦东门",
            "type": "大门",
            "popularity": 100,
            "longitude": 116.355346,
            "latitude": 39.964496,
            "connected_edges": [
                12
            ]
        },
        {
            "id": 174,
            "name": "学十一入口",
            "type": "路口",
            "popularity": 100,
            "longitude": 116.356181,
            "latitude": 39.964668,
            "connected_edges": [
                8,
                9,
                10
            ]
        },
        {
            "id": 175,
            "name": "北边拐点",
            "type": "路口",
            "popularity": 100,
            "longitude": 116.356196,
            "latitude": 39.964879,
            "connected_edges": [
                7,
                8
            ]
        },
        {
            "id": 176,
            "name": "学九入口",
            "type": "路口",
            "popularity": 100,
            "longitude": 116.356206,
            "latitude": 39.964341,
            "connected_edges": [
                13,
                15,
                16
            ]
        },
        {
            "id": 177,
            "name": "综合食堂入口",
            "type": "路口",
            "popularity": 100,
            "longitude": 116.357136,
            "latitude": 39.96403,
            "connected_edges": [
                19,
                20,
                21
            ]
        },
        {
            "id": 178,
            "name": "营业厅入口",
            "type": "路口",
            "popularity": 100,
            "longitude": 116.357569,
            "latitude": 39.963827,
            "connected_edges": [
                24,
                25,
                106
            ]
        },
        {
            "id": 179,
            "name": "活动中心入口",
            "type": "路口",
            "popularity": 100,
            "longitude": 116.357393,
            "latitude": 39.963815,
            "connected_edges": [
                22,
                23,
                24
            ]
        },
        {
            "id": 180,
            "name": "澡堂入口",
            "type": "路口",
            "popularity": 100,
            "longitude": 116.357824,
            "latitude": 39.963834,
            "connected_edges": [
                25,
                26,
                28,
                107
            ]
        },
        {
            "id": 181,
            "name": "水房入口",
            "type": "路口",
            "popularity": 100,
            "longitude": 116.358162,
            "latitude": 39.963847,
            "connected_edges": [
                26,
                27,
                30
            ]
        },
        {
            "id": 182,
            "name": "矮子食堂入口",
            "type": "路口",
            "popularity": 100,
            "longitude": 116.358688,
            "latitude": 39.963587,
            "connected_edges": [
                60,
                61,
                62
            ]
        },
        {
            "id": 183,
            "name": "钉字路口",
            "type": "路口",
            "popularity": 100,
            "longitude": 116.360363,
            "latitude": 39.964152,
            "connected_edges": [
                47,
                48,
                49
            ]
        },
        {
            "id": 184,
            "name": "丁字路口（未知）",
            "type": "路口",
            "popularity": 100,
            "longitude": 116.360766,
            "latitude": 39.964178,
            "connected_edges": [
                49,
                50,
                51
            ]
        },
        {
            "id": 185,
            "name": "T字路口",
            "type": "路口",
            "popularity": 100,
            "longitude": 116.360363,
            "latitude": 39.964043,
            "connected_edges": [
                46,
                47,
                54
            ]
        },
        {
            "id": 186,
            "name": "学生食堂南门",
            "type": "食堂",
            "popularity": 100,
            "longitude": 116.359188,
            "latitude": 39.963028,
            "connected_edges": [
                65,
                66,
                67
            ]
        },
        {
            "id": 187,
            "name": "拐点",
            "type": "路口",
            "popularity": 100,
            "longitude": 116.360479,
            "latitude": 39.963023,
            "connected_edges": [
                78,
                79
            ]
        },
        {
            "id": 188,
            "name": "经管楼入口",
            "type": "路口",
            "popularity": 100,
            "longitude": 116.357488,
            "latitude": 39.964373,
            "connected_edges": [
                80,
                81,
                82
            ]
        },
        {
            "id": 189,
            "name": "网球场入口",
            "type": "路口",
            "popularity": 100,
            "longitude": 116.360104,
            "latitude": 39.962377,
            "connected_edges": [
                137,
                139,
                140
            ]
        },
        {
            "id": 190,
            "name": "篮球场入口",
            "type": "路口",
            "popularity": 100,
            "longitude": 116.358722,
            "latitude": 39.962678,
            "connected_edges": [
                134,
                135,
                136
            ]
        },
        {
            "id": 191,
            "name": "宿舍区拐点",
            "type": "路口",
            "popularity": 100,
            "longitude": 116.355397,
            "latitude": 39.964063,
            "connected_edges": [
                87,
                88
            ]
        },
        {
            "id": 192,
            "name": "学八宿舍入口",
            "type": "路口",
            "popularity": 100,
            "longitude": 116.35716,
            "latitude": 39.963598,
            "connected_edges": [
                103,
                104,
                105
            ]
        },
        {
            "id": 193,
            "name": "学五入口",
            "type": "路口",
            "popularity": 100,
            "longitude": 116.356262,
            "latitude": 39.963551,
            "connected_edges": [
                92,
                93,
                94
            ]
        },
        {
            "id": 194,
            "name": "学三入口",
            "type": "路口",
            "popularity": 100,
            "longitude": 116.355866,
            "latitude": 39.962997,
            "connected_edges": [
                96,
                97,
                98
            ]
        },
        {
            "id": 195,
            "name": "游泳馆入口",
            "type": "路口",
            "popularity": 100,
            "longitude": 116.360677,
            "latitude": 39.962284,
            "connected_edges": [
                142,
                143
            ]
        },
        {
            "id": 196,
            "name": "体育馆拐角",
            "type": "路口",
            "popularity": 100,
            "longitude": 116.359272,
            "latitude": 39.962228,
            "connected_edges": [
                144,
                145
            ]
        },
        {
            "id": 197,
            "name": "教一入口",
            "type": "路口",
            "popularity": 100,
            "longitude": 116.357239,
            "latitude": 39.96196,
            "connected_edges": [
                152,
                153,
                154,
                165
            ]
        },
        {
            "id": 198,
            "name": "后勤处入口",
            "type": "路口",
            "popularity": 100,
            "longitude": 116.357647,
            "latitude": 39.962287,
            "connected_edges": [
                147,
                148,
                149
            ]
        },
        {
            "id": 199,
            "name": "行政楼入口",
            "type": "路口",
            "popularity": 100,
            "longitude": 116.357996,
            "latitude": 39.962299,
            "connected_edges": [
                149,
                150,
                151
            ]
        },
        {
            "id": 200,
            "name": "人文学院入口",
            "type": "路口",
            "popularity": 100,
            "longitude": 116.358018,
            "latitude": 39.961713,
            "connected_edges": [
                166,
                167,
                168
            ]
        },
        {
            "id": 201,
            "name": "信通楼入口",
            "type": "路口",
            "popularity": 100,
            "longitude": 116.355495,
            "latitude": 39.961946,
            "connected_edges": [
                155,
                156,
                157,
                162
            ]
        },
        {
            "id": 202,
            "name": "鸿通楼",
            "type": "教学楼",
            "popularity": 100,
            "longitude": 116.35538,
            "latitude": 39.961945,
            "connected_edges": [
                157
            ]
        },
        {
            "id": 203,
            "name": "电子工程学院楼",
            "type": "教学楼",
            "popularity": 100,
            "longitude": 116.356311,
            "latitude": 39.961956,
            "connected_edges": [
                158,
                159,
                160,
                161
            ]
        },
        {
            "id": 204,
            "name": "教二入口",
            "type": "教学楼",
            "popularity": 100,
            "longitude": 116.357316,
            "latitude": 39.960497,
            "connected_edges": [
                193,
                194,
                201,
                202
            ]
        },
        {
            "id": 205,
            "name": "教三北门",
            "type": "大门",
            "popularity": 100,
            "longitude": 116.356411,
            "latitude": 39.960619,
            "connected_edges": [
                197
            ]
        },
        {
            "id": 206,
            "name": "教三东门",
            "type": "大门",
            "popularity": 100,
            "longitude": 116.357107,
            "latitude": 39.960446,
            "connected_edges": [
                200,
                201
            ]
        },
        {
            "id": 207,
            "name": "x",
            "type": "路口",
            "popularity": 100,
            "longitude": 116.358737,
            "latitude": 39.961291,
            "connected_edges": [
                185,
                186,
                188
            ]
        },
        {
            "id": 208,
            "name": "y",
            "type": "路口",
            "popularity": 100,
            "longitude": 116.35876,
            "latitude": 39.960768,
            "connected_edges": [
                186,
                187,
                189
            ]
        },
        {
            "id": 209,
            "name": "物美超市",
            "type": "超市",
            "popularity": 90,
            "longitude": 116.358031,
            "latitude": 39.963651,
            "connected_edges": []
        }
    ],
    "edges": [
        {
            "id": 0,
            "start_node": 5,
            "end_node": 6,
            "distance": 180.99,
            "walk_speed": 1.0,
            "bike_speed": 3.0,
            "ebike_speed": 5.0
        },
        {
            "id": 1,
            "start_node": 5,
            "end_node": 7,
            "distance": 28.42,
            "walk_speed": 1.0,
            "bike_speed": 0.0,
            "ebike_speed": 0.0
        },
        {
            "id": 2,
            "start_node": 7,
            "end_node": 8,
            "distance": 23.79,
            "walk_speed": 1.0,
            "bike_speed": 0.0,
            "ebike_speed": 0.0
        },
        {
            "id": 3,
            "start_node": 6,
            "end_node": 149,
            "distance": 26.12,
            "walk_speed": 1.0,
            "bike_speed": 3.0,
            "ebike_speed": 5.0
        },
        {
            "id": 4,
            "start_node": 0,
            "end_node": 6,
            "distance": 12.13,
            "walk_speed": 1.0,
            "bike_speed": 2.5,
            "ebike_speed": 2.5
        },
        {
            "id": 5,
            "start_node": 0,
            "end_node": 1,
            "distance": 41.31,
            "walk_speed": 1.0,
            "bike_speed": 2.5,
            "ebike_speed": 3.0
        },
        {
            "id": 6,
            "start_node": 1,
            "end_node": 10,
            "distance": 76.55,
            "walk_speed": 1.0,
            "bike_speed": 2.5,
            "ebike_speed": 4.0
        },
        {
            "id": 7,
            "start_node": 0,
            "end_node": 175,
            "distance": 73.89,
            "walk_speed": 1.0,
            "bike_speed": 2.5,
            "ebike_speed": 3.5
        },
        {
            "id": 8,
            "start_node": 175,
            "end_node": 174,
            "distance": 23.5,
            "walk_speed": 1.0,
            "bike_speed": 2.5,
            "ebike_speed": 3.5
        },
        {
            "id": 9,
            "start_node": 174,
            "end_node": 9,
            "distance": 15.27,
            "walk_speed": 1.0,
            "bike_speed": 0.0,
            "ebike_speed": 0.0
        },
        {
            "id": 10,
            "start_node": 174,
            "end_node": 10,
            "distance": 19.14,
            "walk_speed": 1.0,
            "bike_speed": 2.5,
            "ebike_speed": 3.5
        },
        {
            "id": 11,
            "start_node": 10,
            "end_node": 172,
            "distance": 58.98,
            "walk_speed": 1.0,
            "bike_speed": 2.5,
            "ebike_speed": 3.5
        },
        {
            "id": 12,
            "start_node": 172,
            "end_node": 173,
            "distance": 12.95,
            "walk_speed": 1.0,
            "bike_speed": 0.0,
            "ebike_speed": 0.0
        },
        {
            "id": 13,
            "start_node": 10,
            "end_node": 176,
            "distance": 17.29,
            "walk_speed": 1.0,
            "bike_speed": 2.5,
            "ebike_speed": 3.5
        },
        {
            "id": 14,
            "start_node": 1,
            "end_node": 87,
            "distance": 18.29,
            "walk_speed": 1.0,
            "bike_speed": 2.5,
            "ebike_speed": 4.0
        },
        {
            "id": 15,
            "start_node": 176,
            "end_node": 12,
            "distance": 11.44,
            "walk_speed": 1.0,
            "bike_speed": 0.0,
            "ebike_speed": 0.0
        },
        {
            "id": 16,
            "start_node": 176,
            "end_node": 11,
            "distance": 23.46,
            "walk_speed": 1.0,
            "bike_speed": 2.5,
            "ebike_speed": 4.0
        },
        {
            "id": 17,
            "start_node": 87,
            "end_node": 2,
            "distance": 14.46,
            "walk_speed": 1.0,
            "bike_speed": 2.5,
            "ebike_speed": 3.5
        },
        {
            "id": 18,
            "start_node": 11,
            "end_node": 2,
            "distance": 76.24,
            "walk_speed": 1.0,
            "bike_speed": 2.5,
            "ebike_speed": 4.0
        },
        {
            "id": 19,
            "start_node": 2,
            "end_node": 177,
            "distance": 21.17,
            "walk_speed": 1.0,
            "bike_speed": 2.5,
            "ebike_speed": 4.0
        },
        {
            "id": 20,
            "start_node": 177,
            "end_node": 14,
            "distance": 18.51,
            "walk_speed": 1.0,
            "bike_speed": 0.0,
            "ebike_speed": 0.0
        },
        {
            "id": 21,
            "start_node": 177,
            "end_node": 86,
            "distance": 25.17,
            "walk_speed": 1.0,
            "bike_speed": 2.5,
            "ebike_speed": 4.0
        },
        {
            "id": 22,
            "start_node": 86,
            "end_node": 179,
            "distance": 20.49,
            "walk_speed": 1.0,
            "bike_speed": 2.5,
            "ebike_speed": 4.0
        },
        {
            "id": 23,
            "start_node": 179,
            "end_node": 28,
            "distance": 5.68,
            "walk_speed": 1.0,
            "bike_speed": 0.0,
            "ebike_speed": 0.0
        },
        {
            "id": 24,
            "start_node": 179,
            "end_node": 178,
            "distance": 15.06,
            "walk_speed": 1.0,
            "bike_speed": 2.5,
            "ebike_speed": 4.0
        },
        {
            "id": 25,
            "start_node": 178,
            "end_node": 180,
            "distance": 21.75,
            "walk_speed": 1.0,
            "bike_speed": 2.5,
            "ebike_speed": 4.0
        },
        {
            "id": 26,
            "start_node": 180,
            "end_node": 181,
            "distance": 28.84,
            "walk_speed": 1.0,
            "bike_speed": 2.5,
            "ebike_speed": 4.0
        },
        {
            "id": 27,
            "start_node": 181,
            "end_node": 91,
            "distance": 40.27,
            "walk_speed": 1.0,
            "bike_speed": 2.5,
            "ebike_speed": 4.0
        },
        {
            "id": 28,
            "start_node": 180,
            "end_node": 29,
            "distance": 17.24,
            "walk_speed": 1.0,
            "bike_speed": 0.0,
            "ebike_speed": 0.0
        },
        {
            "id": 29,
            "start_node": 29,
            "end_node": 30,
            "distance": 28.51,
            "walk_speed": 1.0,
            "bike_speed": 0.0,
            "ebike_speed": 0.0
        },
        {
            "id": 30,
            "start_node": 181,
            "end_node": 30,
            "distance": 17.48,
            "walk_speed": 1.0,
            "bike_speed": 0.0,
            "ebike_speed": 0.0
        },
        {
            "id": 31,
            "start_node": 91,
            "end_node": 89,
            "distance": 61.27,
            "walk_speed": 1.0,
            "bike_speed": 2.5,
            "ebike_speed": 4.0
        },
        {
            "id": 32,
            "start_node": 87,
            "end_node": 88,
            "distance": 62.28,
            "walk_speed": 1.0,
            "bike_speed": 2.5,
            "ebike_speed": 4.0
        },
        {
            "id": 33,
            "start_node": 88,
            "end_node": 89,
            "distance": 62.78,
            "walk_speed": 1.0,
            "bike_speed": 2.5,
            "ebike_speed": 4.0
        },
        {
            "id": 34,
            "start_node": 89,
            "end_node": 36,
            "distance": 11.02,
            "walk_speed": 1.0,
            "bike_speed": 2.5,
            "ebike_speed": 4.0
        },
        {
            "id": 35,
            "start_node": 36,
            "end_node": 35,
            "distance": 14.27,
            "walk_speed": 1.0,
            "bike_speed": 0.0,
            "ebike_speed": 0.0
        },
        {
            "id": 36,
            "start_node": 35,
            "end_node": 34,
            "distance": 33.96,
            "walk_speed": 1.0,
            "bike_speed": 0.0,
            "ebike_speed": 0.0
        },
        {
            "id": 37,
            "start_node": 34,
            "end_node": 13,
            "distance": 10.72,
            "walk_speed": 1.0,
            "bike_speed": 0.0,
            "ebike_speed": 0.0
        },
        {
            "id": 38,
            "start_node": 36,
            "end_node": 38,
            "distance": 60.59,
            "walk_speed": 1.0,
            "bike_speed": 2.5,
            "ebike_speed": 3.5
        },
        {
            "id": 39,
            "start_node": 38,
            "end_node": 39,
            "distance": 29.47,
            "walk_speed": 1.0,
            "bike_speed": 0.0,
            "ebike_speed": 0.0
        },
        {
            "id": 40,
            "start_node": 38,
            "end_node": 41,
            "distance": 22.75,
            "walk_speed": 1.0,
            "bike_speed": 2.5,
            "ebike_speed": 3.5
        },
        {
            "id": 41,
            "start_node": 41,
            "end_node": 42,
            "distance": 38.43,
            "walk_speed": 1.0,
            "bike_speed": 0.0,
            "ebike_speed": 0.0
        },
        {
            "id": 42,
            "start_node": 42,
            "end_node": 40,
            "distance": 15.56,
            "walk_speed": 1.0,
            "bike_speed": 0.0,
            "ebike_speed": 0.0
        },
        {
            "id": 43,
            "start_node": 41,
            "end_node": 37,
            "distance": 62.19,
            "walk_speed": 1.0,
            "bike_speed": 2.5,
            "ebike_speed": 3.5
        },
        {
            "id": 44,
            "start_node": 37,
            "end_node": 160,
            "distance": 37.51,
            "walk_speed": 1.0,
            "bike_speed": 2.5,
            "ebike_speed": 3.5
        },
        {
            "id": 45,
            "start_node": 42,
            "end_node": 155,
            "distance": 14.81,
            "walk_speed": 1.0,
            "bike_speed": 0.0,
            "ebike_speed": 0.0
        },
        {
            "id": 46,
            "start_node": 155,
            "end_node": 185,
            "distance": 55.49,
            "walk_speed": 1.0,
            "bike_speed": 0.0,
            "ebike_speed": 0.0
        },
        {
            "id": 47,
            "start_node": 185,
            "end_node": 183,
            "distance": 12.12,
            "walk_speed": 1.0,
            "bike_speed": 2.5,
            "ebike_speed": 0.0
        },
        {
            "id": 48,
            "start_node": 183,
            "end_node": 37,
            "distance": 42.31,
            "walk_speed": 1.0,
            "bike_speed": 2.5,
            "ebike_speed": 0.0
        },
        {
            "id": 49,
            "start_node": 183,
            "end_node": 184,
            "distance": 34.47,
            "walk_speed": 1.0,
            "bike_speed": 2.5,
            "ebike_speed": 0.0
        },
        {
            "id": 50,
            "start_node": 184,
            "end_node": 160,
            "distance": 40.27,
            "walk_speed": 1.0,
            "bike_speed": 2.5,
            "ebike_speed": 0.0
        },
        {
            "id": 51,
            "start_node": 184,
            "end_node": 159,
            "distance": 19.97,
            "walk_speed": 1.0,
            "bike_speed": 2.5,
            "ebike_speed": 0.0
        },
        {
            "id": 52,
            "start_node": 158,
            "end_node": 159,
            "distance": 12.12,
            "walk_speed": 1.0,
            "bike_speed": 0.0,
            "ebike_speed": 0.0
        },
        {
            "id": 53,
            "start_node": 159,
            "end_node": 153,
            "distance": 24.63,
            "walk_speed": 1.0,
            "bike_speed": 2.5,
            "ebike_speed": 0.0
        },
        {
            "id": 54,
            "start_node": 185,
            "end_node": 154,
            "distance": 34.92,
            "walk_speed": 1.0,
            "bike_speed": 2.5,
            "ebike_speed": 0.0
        },
        {
            "id": 55,
            "start_node": 153,
            "end_node": 154,
            "distance": 37.56,
            "walk_speed": 1.0,
            "bike_speed": 2.5,
            "ebike_speed": 0.0
        },
        {
            "id": 56,
            "start_node": 154,
            "end_node": 43,
            "distance": 54.44,
            "walk_speed": 1.0,
            "bike_speed": 2.5,
            "ebike_speed": 0.0
        },
        {
            "id": 57,
            "start_node": 43,
            "end_node": 155,
            "distance": 41.41,
            "walk_speed": 1.0,
            "bike_speed": 2.5,
            "ebike_speed": 0.0
        },
        {
            "id": 58,
            "start_node": 43,
            "end_node": 90,
            "distance": 88.22,
            "walk_speed": 1.0,
            "bike_speed": 2.5,
            "ebike_speed": 3.5
        },
        {
            "id": 59,
            "start_node": 91,
            "end_node": 90,
            "distance": 24.56,
            "walk_speed": 1.0,
            "bike_speed": 2.5,
            "ebike_speed": 3.5
        },
        {
            "id": 60,
            "start_node": 90,
            "end_node": 182,
            "distance": 6.86,
            "walk_speed": 1.0,
            "bike_speed": 2.5,
            "ebike_speed": 3.5
        },
        {
            "id": 61,
            "start_node": 182,
            "end_node": 33,
            "distance": 11.86,
            "walk_speed": 1.0,
            "bike_speed": 0.0,
            "ebike_speed": 0.0
        },
        {
            "id": 62,
            "start_node": 182,
            "end_node": 92,
            "distance": 30.58,
            "walk_speed": 1.0,
            "bike_speed": 2.5,
            "ebike_speed": 3.5
        },
        {
            "id": 63,
            "start_node": 92,
            "end_node": 44,
            "distance": 11.66,
            "walk_speed": 1.0,
            "bike_speed": 0.0,
            "ebike_speed": 0.0
        },
        {
            "id": 64,
            "start_node": 92,
            "end_node": 98,
            "distance": 32.49,
            "walk_speed": 1.0,
            "bike_speed": 2.5,
            "ebike_speed": 3.5
        },
        {
            "id": 65,
            "start_node": 98,
            "end_node": 186,
            "distance": 40.83,
            "walk_speed": 1.0,
            "bike_speed": 2.5,
            "ebike_speed": 3.5
        },
        {
            "id": 66,
            "start_node": 186,
            "end_node": 46,
            "distance": 50.02,
            "walk_speed": 1.0,
            "bike_speed": 2.5,
            "ebike_speed": 3.5
        },
        {
            "id": 67,
            "start_node": 186,
            "end_node": 45,
            "distance": 10.23,
            "walk_speed": 1.0,
            "bike_speed": 2.5,
            "ebike_speed": 3.5
        },
        {
            "id": 68,
            "start_node": 46,
            "end_node": 43,
            "distance": 67.91,
            "walk_speed": 1.0,
            "bike_speed": 2.5,
            "ebike_speed": 3.5
        },
        {
            "id": 69,
            "start_node": 46,
            "end_node": 47,
            "distance": 48.16,
            "walk_speed": 1.0,
            "bike_speed": 2.5,
            "ebike_speed": 3.5
        },
        {
            "id": 70,
            "start_node": 47,
            "end_node": 150,
            "distance": 11.19,
            "walk_speed": 1.0,
            "bike_speed": 2.5,
            "ebike_speed": 3.5
        },
        {
            "id": 71,
            "start_node": 150,
            "end_node": 151,
            "distance": 35.58,
            "walk_speed": 1.0,
            "bike_speed": 2.5,
            "ebike_speed": 3.5
        },
        {
            "id": 72,
            "start_node": 151,
            "end_node": 152,
            "distance": 36.58,
            "walk_speed": 1.0,
            "bike_speed": 2.5,
            "ebike_speed": 3.5
        },
        {
            "id": 73,
            "start_node": 151,
            "end_node": 154,
            "distance": 25.08,
            "walk_speed": 1.0,
            "bike_speed": 2.5,
            "ebike_speed": 3.5
        },
        {
            "id": 74,
            "start_node": 152,
            "end_node": 153,
            "distance": 31.71,
            "walk_speed": 1.0,
            "bike_speed": 2.5,
            "ebike_speed": 3.5
        },
        {
            "id": 75,
            "start_node": 152,
            "end_node": 156,
            "distance": 25.3,
            "walk_speed": 1.0,
            "bike_speed": 2.5,
            "ebike_speed": 3.5
        },
        {
            "id": 76,
            "start_node": 156,
            "end_node": 157,
            "distance": 11.02,
            "walk_speed": 1.0,
            "bike_speed": 2.5,
            "ebike_speed": 3.5
        },
        {
            "id": 77,
            "start_node": 156,
            "end_node": 48,
            "distance": 27.04,
            "walk_speed": 1.0,
            "bike_speed": 2.5,
            "ebike_speed": 3.5
        },
        {
            "id": 78,
            "start_node": 48,
            "end_node": 187,
            "distance": 31.7,
            "walk_speed": 1.0,
            "bike_speed": 2.5,
            "ebike_speed": 3.5
        },
        {
            "id": 79,
            "start_node": 187,
            "end_node": 47,
            "distance": 14.21,
            "walk_speed": 1.0,
            "bike_speed": 2.5,
            "ebike_speed": 3.5
        },
        {
            "id": 80,
            "start_node": 87,
            "end_node": 188,
            "distance": 31.04,
            "walk_speed": 1.0,
            "bike_speed": 2.5,
            "ebike_speed": 3.5
        },
        {
            "id": 81,
            "start_node": 188,
            "end_node": 88,
            "distance": 31.28,
            "walk_speed": 1.0,
            "bike_speed": 2.5,
            "ebike_speed": 3.5
        },
        {
            "id": 82,
            "start_node": 188,
            "end_node": 27,
            "distance": 8.78,
            "walk_speed": 1.0,
            "bike_speed": 0.0,
            "ebike_speed": 0.0
        },
        {
            "id": 83,
            "start_node": 48,
            "end_node": 49,
            "distance": 67.23,
            "walk_speed": 1.0,
            "bike_speed": 2.5,
            "ebike_speed": 3.5
        },
        {
            "id": 84,
            "start_node": 49,
            "end_node": 50,
            "distance": 44.66,
            "walk_speed": 1.0,
            "bike_speed": 2.5,
            "ebike_speed": 3.5
        },
        {
            "id": 85,
            "start_node": 50,
            "end_node": 47,
            "distance": 78.54,
            "walk_speed": 1.0,
            "bike_speed": 2.5,
            "ebike_speed": 3.5
        },
        {
            "id": 86,
            "start_node": 11,
            "end_node": 57,
            "distance": 41.29,
            "walk_speed": 1.0,
            "bike_speed": 2.5,
            "ebike_speed": 3.5
        },
        {
            "id": 87,
            "start_node": 11,
            "end_node": 191,
            "distance": 71.65,
            "walk_speed": 1.0,
            "bike_speed": 2.5,
            "ebike_speed": 3.5
        },
        {
            "id": 88,
            "start_node": 191,
            "end_node": 15,
            "distance": 46.96,
            "walk_speed": 1.5,
            "bike_speed": 2.5,
            "ebike_speed": 3.5
        },
        {
            "id": 89,
            "start_node": 15,
            "end_node": 94,
            "distance": 71.0,
            "walk_speed": 1.5,
            "bike_speed": 2.5,
            "ebike_speed": 3.5
        },
        {
            "id": 90,
            "start_node": 94,
            "end_node": 57,
            "distance": 12.12,
            "walk_speed": 1.5,
            "bike_speed": 2.5,
            "ebike_speed": 3.5
        },
        {
            "id": 91,
            "start_node": 57,
            "end_node": 86,
            "distance": 76.77,
            "walk_speed": 1.5,
            "bike_speed": 2.5,
            "ebike_speed": 3.5
        },
        {
            "id": 92,
            "start_node": 94,
            "end_node": 193,
            "distance": 11.15,
            "walk_speed": 1.5,
            "bike_speed": 2.5,
            "ebike_speed": 3.5
        },
        {
            "id": 93,
            "start_node": 193,
            "end_node": 16,
            "distance": 8.69,
            "walk_speed": 1.5,
            "bike_speed": 2.5,
            "ebike_speed": 3.5
        },
        {
            "id": 94,
            "start_node": 193,
            "end_node": 18,
            "distance": 48.82,
            "walk_speed": 1.0,
            "bike_speed": 2.5,
            "ebike_speed": 3.5
        },
        {
            "id": 95,
            "start_node": 15,
            "end_node": 58,
            "distance": 72.62,
            "walk_speed": 1.0,
            "bike_speed": 2.5,
            "ebike_speed": 3.5
        },
        {
            "id": 96,
            "start_node": 58,
            "end_node": 194,
            "distance": 37.0,
            "walk_speed": 1.5,
            "bike_speed": 2.5,
            "ebike_speed": 3.5
        },
        {
            "id": 97,
            "start_node": 194,
            "end_node": 19,
            "distance": 6.06,
            "walk_speed": 1.0,
            "bike_speed": 2.5,
            "ebike_speed": 3.5
        },
        {
            "id": 98,
            "start_node": 194,
            "end_node": 164,
            "distance": 35.01,
            "walk_speed": 1.0,
            "bike_speed": 2.5,
            "ebike_speed": 3.5
        },
        {
            "id": 99,
            "start_node": 164,
            "end_node": 18,
            "distance": 14.91,
            "walk_speed": 1.0,
            "bike_speed": 2.5,
            "ebike_speed": 3.5
        },
        {
            "id": 100,
            "start_node": 18,
            "end_node": 163,
            "distance": 39.46,
            "walk_speed": 1.0,
            "bike_speed": 2.5,
            "ebike_speed": 3.5
        },
        {
            "id": 101,
            "start_node": 163,
            "end_node": 23,
            "distance": 37.91,
            "walk_speed": 1.0,
            "bike_speed": 2.5,
            "ebike_speed": 3.5
        },
        {
            "id": 102,
            "start_node": 23,
            "end_node": 93,
            "distance": 15.35,
            "walk_speed": 1.0,
            "bike_speed": 2.5,
            "ebike_speed": 3.5
        },
        {
            "id": 103,
            "start_node": 93,
            "end_node": 192,
            "distance": 35.61,
            "walk_speed": 1.0,
            "bike_speed": 2.5,
            "ebike_speed": 3.5
        },
        {
            "id": 104,
            "start_node": 192,
            "end_node": 86,
            "distance": 22.91,
            "walk_speed": 1.0,
            "bike_speed": 2.5,
            "ebike_speed": 3.5
        },
        {
            "id": 105,
            "start_node": 192,
            "end_node": 17,
            "distance": 17.31,
            "walk_speed": 1.0,
            "bike_speed": 0.0,
            "ebike_speed": 0.0
        },
        {
            "id": 106,
            "start_node": 32,
            "end_node": 178,
            "distance": 10.22,
            "walk_speed": 1.0,
            "bike_speed": 0.0,
            "ebike_speed": 0.0
        },
        {
            "id": 107,
            "start_node": 180,
            "end_node": 31,
            "distance": 12.24,
            "walk_speed": 1.0,
            "bike_speed": 0.0,
            "ebike_speed": 0.0
        },
        {
            "id": 108,
            "start_node": 93,
            "end_node": 92,
            "distance": 129.51,
            "walk_speed": 1.0,
            "bike_speed": 2.5,
            "ebike_speed": 3.5
        },
        {
            "id": 109,
            "start_node": 20,
            "end_node": 163,
            "distance": 13.83,
            "walk_speed": 1.5,
            "bike_speed": 0.0,
            "ebike_speed": 0.0
        },
        {
            "id": 110,
            "start_node": 23,
            "end_node": 168,
            "distance": 22.64,
            "walk_speed": 1.5,
            "bike_speed": 2.5,
            "ebike_speed": 3.5
        },
        {
            "id": 111,
            "start_node": 168,
            "end_node": 169,
            "distance": 30.22,
            "walk_speed": 1.0,
            "bike_speed": 2.5,
            "ebike_speed": 3.5
        },
        {
            "id": 112,
            "start_node": 169,
            "end_node": 24,
            "distance": 13.92,
            "walk_speed": 1.0,
            "bike_speed": 0.0,
            "ebike_speed": 0.0
        },
        {
            "id": 113,
            "start_node": 169,
            "end_node": 171,
            "distance": 12.03,
            "walk_speed": 1.0,
            "bike_speed": 0.0,
            "ebike_speed": 0.0
        },
        {
            "id": 114,
            "start_node": 171,
            "end_node": 170,
            "distance": 10.17,
            "walk_speed": 1.0,
            "bike_speed": 0.0,
            "ebike_speed": 0.0
        },
        {
            "id": 115,
            "start_node": 170,
            "end_node": 167,
            "distance": 28.52,
            "walk_speed": 1.0,
            "bike_speed": 2.5,
            "ebike_speed": 3.5
        },
        {
            "id": 116,
            "start_node": 168,
            "end_node": 167,
            "distance": 29.88,
            "walk_speed": 1.0,
            "bike_speed": 2.5,
            "ebike_speed": 3.5
        },
        {
            "id": 117,
            "start_node": 171,
            "end_node": 26,
            "distance": 28.94,
            "walk_speed": 1.0,
            "bike_speed": 0.0,
            "ebike_speed": 0.0
        },
        {
            "id": 118,
            "start_node": 167,
            "end_node": 166,
            "distance": 27.82,
            "walk_speed": 1.0,
            "bike_speed": 2.5,
            "ebike_speed": 3.5
        },
        {
            "id": 119,
            "start_node": 166,
            "end_node": 25,
            "distance": 21.31,
            "walk_speed": 1.0,
            "bike_speed": 0.0,
            "ebike_speed": 0.0
        },
        {
            "id": 120,
            "start_node": 166,
            "end_node": 96,
            "distance": 14.49,
            "walk_speed": 1.0,
            "bike_speed": 2.5,
            "ebike_speed": 3.5
        },
        {
            "id": 121,
            "start_node": 164,
            "end_node": 165,
            "distance": 62.94,
            "walk_speed": 1.5,
            "bike_speed": 2.5,
            "ebike_speed": 3.5
        },
        {
            "id": 122,
            "start_node": 165,
            "end_node": 22,
            "distance": 38.54,
            "walk_speed": 1.0,
            "bike_speed": 0.0,
            "ebike_speed": 0.0
        },
        {
            "id": 123,
            "start_node": 22,
            "end_node": 166,
            "distance": 42.4,
            "walk_speed": 1.0,
            "bike_speed": 0.0,
            "ebike_speed": 0.0
        },
        {
            "id": 124,
            "start_node": 22,
            "end_node": 162,
            "distance": 16.91,
            "walk_speed": 1.0,
            "bike_speed": 0.0,
            "ebike_speed": 0.0
        },
        {
            "id": 125,
            "start_node": 165,
            "end_node": 95,
            "distance": 20.04,
            "walk_speed": 1.5,
            "bike_speed": 2.5,
            "ebike_speed": 3.5
        },
        {
            "id": 126,
            "start_node": 165,
            "end_node": 21,
            "distance": 33.29,
            "walk_speed": 1.0,
            "bike_speed": 0.0,
            "ebike_speed": 0.0
        },
        {
            "id": 127,
            "start_node": 95,
            "end_node": 161,
            "distance": 34.86,
            "walk_speed": 1.5,
            "bike_speed": 2.5,
            "ebike_speed": 3.5
        },
        {
            "id": 128,
            "start_node": 161,
            "end_node": 21,
            "distance": 18.92,
            "walk_speed": 1.0,
            "bike_speed": 0.0,
            "ebike_speed": 0.0
        },
        {
            "id": 129,
            "start_node": 161,
            "end_node": 59,
            "distance": 34.36,
            "walk_speed": 1.5,
            "bike_speed": 2.5,
            "ebike_speed": 3.5
        },
        {
            "id": 130,
            "start_node": 59,
            "end_node": 58,
            "distance": 85.96,
            "walk_speed": 1.0,
            "bike_speed": 2.5,
            "ebike_speed": 3.5
        },
        {
            "id": 131,
            "start_node": 95,
            "end_node": 162,
            "distance": 37.3,
            "walk_speed": 1.0,
            "bike_speed": 2.5,
            "ebike_speed": 3.5
        },
        {
            "id": 132,
            "start_node": 162,
            "end_node": 96,
            "distance": 43.84,
            "walk_speed": 1.0,
            "bike_speed": 2.5,
            "ebike_speed": 3.5
        },
        {
            "id": 133,
            "start_node": 96,
            "end_node": 97,
            "distance": 124.33,
            "walk_speed": 1.0,
            "bike_speed": 2.5,
            "ebike_speed": 3.5
        },
        {
            "id": 134,
            "start_node": 97,
            "end_node": 190,
            "distance": 39.06,
            "walk_speed": 1.0,
            "bike_speed": 2.5,
            "ebike_speed": 3.5
        },
        {
            "id": 135,
            "start_node": 190,
            "end_node": 98,
            "distance": 38.04,
            "walk_speed": 1.0,
            "bike_speed": 2.5,
            "ebike_speed": 3.5
        },
        {
            "id": 136,
            "start_node": 190,
            "end_node": 54,
            "distance": 44.48,
            "walk_speed": 1.0,
            "bike_speed": 0.0,
            "ebike_speed": 0.0
        },
        {
            "id": 137,
            "start_node": 189,
            "end_node": 56,
            "distance": 26.91,
            "walk_speed": 1.0,
            "bike_speed": 0.0,
            "ebike_speed": 0.0
        },